
{
  "response": {
  "version":"0.1",
  "termsofService":"http://www.wunderground.com/weather/api/d/terms.html",
  "features": {
  "forecast": 1
  ,
  "geolookup": 1
  ,
  "conditions": 1
  }
	}
		,	"location": {
		"type":"CITY",
		"country":"US",
		"country_iso3166":"US",
		"country_name":"USA",
		"state":"IN",
		"city":"Arcadia",
		"tz_short":"EDT",
		"tz_long":"America/Indianapolis",
		"lat":"40.17266846",
		"lon":"-86.01607513",
		"zip":"46030",
		"magic":"1",
		"wmo":"99999",
		"l":"/q/zmw:46030.1.99999",
		"requesturl":"US/IN/Arcadia.html",
		"wuiurl":"https://www.wunderground.com/US/IN/Arcadia.html",
		"nearby_weather_stations": {
		"airport": {
		"station": [
		{ "city":"Indianapolis", "state":"IN", "country":"US", "icao":"KTYQ", "lat":"40.03066635", "lon":"-86.25144196" }
		,{ "city":"Anderson", "state":"IN", "country":"US", "icao":"KAID", "lat":"40.10861206", "lon":"-85.61299896" }
		,{ "city":"Indianapolis Mount Comfort", "state":"IN", "country":"US", "icao":"KMQJ", "lat":"39.84348679", "lon":"-85.89706421" }
		,{ "city":"Kokomo", "state":"IN", "country":"US", "icao":"KOKK", "lat":"40.52817535", "lon":"-86.05899048" }
		]
		}
		,
		"pws": {
		"station": [
		{
		"neighborhood":"Becks Corporate",
		"city":"Atlanta",
		"state":"IN",
		"country":"US",
		"id":"KINATLAN2",
		"lat":40.186966,
		"lon":-86.050316,
		"distance_km":3,
		"distance_mi":1
		},
		{
		"neighborhood":"APRSWXNET",
		"city":"Cicero",
		"state":"IN",
		"country":"US",
		"id":"MD8428",
		"lat":40.111671,
		"lon":-86.068832,
		"distance_km":8,
		"distance_mi":4
		},
		{
		"neighborhood":"Sumara",
		"city":"Cicero",
		"state":"IN",
		"country":"US",
		"id":"KINCICER2",
		"lat":40.125763,
		"lon":-86.092400,
		"distance_km":8,
		"distance_mi":4
		},
		{
		"neighborhood":"Hooterville",
		"city":"Noblesville",
		"state":"IN",
		"country":"US",
		"id":"KINNOBLE6",
		"lat":40.103878,
		"lon":-86.082039,
		"distance_km":9,
		"distance_mi":5
		},
		{
		"neighborhood":"Lakes at Prairie Crossing",
		"city":"Noblesville",
		"state":"IN",
		"country":"US",
		"id":"KINNOBLE26",
		"lat":40.072422,
		"lon":-86.031082,
		"distance_km":11,
		"distance_mi":6
		},
		{
		"neighborhood":"WindWood",
		"city":"Noblesville",
		"state":"IN",
		"country":"US",
		"id":"KINNOBLE19",
		"lat":40.070679,
		"lon":-86.035088,
		"distance_km":11,
		"distance_mi":6
		},
		{
		"neighborhood":"Mill Grove",
		"city":"Noblesville",
		"state":"IN",
		"country":"US",
		"id":"KINNOBLE37",
		"lat":40.068340,
		"lon":-86.063156,
		"distance_km":12,
		"distance_mi":7
		},
		{
		"neighborhood":"Whitcomb Ridge",
		"city":"Noblesville",
		"state":"IN",
		"country":"US",
		"id":"KINNOBLE17",
		"lat":40.062550,
		"lon":-86.043648,
		"distance_km":12,
		"distance_mi":7
		},
		{
		"neighborhood":"Maple Grove Way",
		"city":"Noblesville",
		"state":"IN",
		"country":"US",
		"id":"KINNOBLE20",
		"lat":40.062176,
		"lon":-86.063866,
		"distance_km":12,
		"distance_mi":7
		},
		{
		"neighborhood":"Tipton, In 46072",
		"city":"Tipton",
		"state":"IN",
		"country":"US",
		"id":"KINTIPTO2",
		"lat":40.287601,
		"lon":-86.045799,
		"distance_km":13,
		"distance_mi":7
		},
		{
		"neighborhood":"Canyon Oak Drive",
		"city":"Noblesville",
		"state":"IN",
		"country":"US",
		"id":"KINNOBLE39",
		"lat":40.054306,
		"lon":-86.046333,
		"distance_km":13,
		"distance_mi":8
		},
		{
		"neighborhood":"Lakeview court",
		"city":"Noblesville",
		"state":"IN",
		"country":"US",
		"id":"KINNOBLE43",
		"lat":40.051823,
		"lon":-86.023926,
		"distance_km":13,
		"distance_mi":8
		},
		{
		"neighborhood":"Downtown Noblesville",
		"city":"Noblesville",
		"state":"IN",
		"country":"US",
		"id":"KINNOBLE11",
		"lat":40.043610,
		"lon":-86.004120,
		"distance_km":14,
		"distance_mi":8
		},
		{
		"neighborhood":"F16arm",
		"city":"Westfield",
		"state":"IN",
		"country":"US",
		"id":"KINWESTF7",
		"lat":40.045368,
		"lon":-86.094849,
		"distance_km":15,
		"distance_mi":9
		},
		{
		"neighborhood":"Hazel Dell Woods",
		"city":"Noblesville",
		"state":"IN",
		"country":"US",
		"id":"KINNOBLE41",
		"lat":40.037300,
		"lon":-86.072800,
		"distance_km":15,
		"distance_mi":9
		},
		{
		"neighborhood":"Gunther Boulevard",
		"city":"Noblesville",
		"state":"IN",
		"country":"US",
		"id":"KINNOBLE18",
		"lat":40.037884,
		"lon":-86.104126,
		"distance_km":16,
		"distance_mi":10
		},
		{
		"neighborhood":"Chapel Woods",
		"city":"Noblesville",
		"state":"IN",
		"country":"US",
		"id":"KINNOBLE38",
		"lat":40.020439,
		"lon":-85.969109,
		"distance_km":17,
		"distance_mi":10
		},
		{
		"neighborhood":"Sheridan Aviation - Becks Hybrids",
		"city":"Sheridan",
		"state":"IN",
		"country":"US",
		"id":"KINSHERI4",
		"lat":40.177067,
		"lon":-86.221405,
		"distance_km":17,
		"distance_mi":10
		},
		{
		"neighborhood":"Chapel Woods",
		"city":"Noblesville",
		"state":"IN",
		"country":"US",
		"id":"KINNOBLE21",
		"lat":40.019436,
		"lon":-85.969566,
		"distance_km":17,
		"distance_mi":10
		},
		{
		"neighborhood":"Lapel South West side",
		"city":"Lapel",
		"state":"IN",
		"country":"US",
		"id":"KINLAPEL2",
		"lat":40.066021,
		"lon":-85.851219,
		"distance_km":18,
		"distance_mi":11
		},
		{
		"neighborhood":"Sommerwood",
		"city":"Noblesville",
		"state":"IN",
		"country":"US",
		"id":"KINNOBLE12",
		"lat":40.001999,
		"lon":-86.009903,
		"distance_km":18,
		"distance_mi":11
		},
		{
		"neighborhood":"Viking Meadow",
		"city":"Westfield",
		"state":"IN",
		"country":"US",
		"id":"KINWESTF20",
		"lat":40.018856,
		"lon":-86.147972,
		"distance_km":20,
		"distance_mi":12
		},
		{
		"neighborhood":"Harrison Green",
		"city":"Fishers",
		"state":"IN",
		"country":"US",
		"id":"KINFISHE27",
		"lat":39.988720,
		"lon":-86.012909,
		"distance_km":20,
		"distance_mi":12
		},
		{
		"neighborhood":"Brightwater-Youngwood, Plantana",
		"city":"Fishers",
		"state":"IN",
		"country":"US",
		"id":"KINFISHE15",
		"lat":39.989399,
		"lon":-85.989296,
		"distance_km":20,
		"distance_mi":12
		},
		{
		"neighborhood":"Harrison Park",
		"city":"Fishers",
		"state":"IN",
		"country":"US",
		"id":"KINFISHE43",
		"lat":39.988228,
		"lon":-86.018471,
		"distance_km":20,
		"distance_mi":12
		}
		]
		}
		}
	}
  ,	"current_observation": {
		"image": {
		"url":"http://icons.wxug.com/graphics/wu2/logo_130x80.png",
		"title":"Weather Underground",
		"link":"http://www.wunderground.com"
		},
		"display_location": {
		"full":"Arcadia, IN",
		"city":"Arcadia",
		"state":"IN",
		"state_name":"Indiana",
		"country":"US",
		"country_iso3166":"US",
		"zip":"46030",
		"magic":"1",
		"wmo":"99999",
		"latitude":"40.17266846",
		"longitude":"-86.01607513",
		"elevation":"264.00000000"
		},
		"observation_location": {
		"full":"Becks Corporate, Atlanta, Indiana",
		"city":"Becks Corporate, Atlanta",
		"state":"Indiana",
		"country":"US",
		"country_iso3166":"US",
		"latitude":"40.186966",
		"longitude":"-86.050316",
		"elevation":"866 ft"
		},
		"estimated": {
		},
		"station_id":"KINATLAN2",
		"observation_time":"Last Updated on October 13, 1:30 PM EDT",
		"observation_time_rfc822":"Thu, 13 Oct 2016 13:30:50 -0400",
		"observation_epoch":"1476379850",
		"local_time_rfc822":"Thu, 13 Oct 2016 13:33:15 -0400",
		"local_epoch":"1476379995",
		"local_tz_short":"EDT",
		"local_tz_long":"America/Indianapolis",
		"local_tz_offset":"-0400",
		"weather":"Scattered Clouds",
		"temperature_string":"55.9 F (13.3 C)",
		"temp_f":55.9,
		"temp_c":13.3,
		"relative_humidity":"70%",
		"wind_string":"From the North at 4.0 MPH Gusting to 6.0 MPH",
		"wind_dir":"North",
		"wind_degrees":355,
		"wind_mph":4.0,
		"wind_gust_mph":"6.0",
		"wind_kph":6.4,
		"wind_gust_kph":"9.7",
		"pressure_mb":"1026",
		"pressure_in":"30.31",
		"pressure_trend":"0",
		"dewpoint_string":"46 F (8 C)",
		"dewpoint_f":46,
		"dewpoint_c":8,
		"heat_index_string":"NA",
		"heat_index_f":"NA",
		"heat_index_c":"NA",
		"windchill_string":"NA",
		"windchill_f":"NA",
		"windchill_c":"NA",
		"feelslike_string":"55.9 F (13.3 C)",
		"feelslike_f":"55.9",
		"feelslike_c":"13.3",
		"visibility_mi":"10.0",
		"visibility_km":"16.1",
		"solarradiation":"234",
		"UV":"4","precip_1hr_string":"0.00 in ( 0 mm)",
		"precip_1hr_in":"0.00",
		"precip_1hr_metric":" 0",
		"precip_today_string":"0.00 in (0 mm)",
		"precip_today_in":"0.00",
		"precip_today_metric":"0",
		"leaf_wetness": "0.0",
		"icon":"partlycloudy",
		"icon_url":"http://icons.wxug.com/i/c/k/partlycloudy.gif",
		"forecast_url":"http://www.wunderground.com/US/IN/Arcadia.html",
		"history_url":"http://www.wunderground.com/weatherstation/WXDailyHistory.asp?ID=KINATLAN2",
		"ob_url":"http://www.wunderground.com/cgi-bin/findweather/getForecast?query=40.186966,-86.050316",
		"nowcast":""
	}
		,
	"forecast":{
		"txt_forecast": {
		"date":"11:49 AM EDT",
		"forecastday": [
		{
		"period":0,
		"icon":"partlycloudy",
		"icon_url":"http://icons.wxug.com/i/c/k/partlycloudy.gif",
		"title":"Thursday",
		"fcttext":"A mix of clouds and sun. High 61F. Winds light and variable.",
		"fcttext_metric":"Sunshine and clouds mixed. High 16C. Winds light and variable.",
		"pop":"0"
		}
		,
		{
		"period":1,
		"icon":"nt_clear",
		"icon_url":"http://icons.wxug.com/i/c/k/nt_clear.gif",
		"title":"Thursday Night",
		"fcttext":"Clear skies. Low 38F. Winds light and variable.",
		"fcttext_metric":"Clear skies. Low 4C. Winds light and variable.",
		"pop":"10"
		}
		,
		{
		"period":2,
		"icon":"clear",
		"icon_url":"http://icons.wxug.com/i/c/k/clear.gif",
		"title":"Friday",
		"fcttext":"A mainly sunny sky. High 68F. Winds ESE at 5 to 10 mph.",
		"fcttext_metric":"Generally sunny. High around 20C. Winds ESE at 10 to 15 km/h.",
		"pop":"10"
		}
		,
		{
		"period":3,
		"icon":"nt_clear",
		"icon_url":"http://icons.wxug.com/i/c/k/nt_clear.gif",
		"title":"Friday Night",
		"fcttext":"Clear skies. Low 47F. Winds light and variable.",
		"fcttext_metric":"Clear skies. Low 8C. Winds light and variable.",
		"pop":"10"
		}
		,
		{
		"period":4,
		"icon":"partlycloudy",
		"icon_url":"http://icons.wxug.com/i/c/k/partlycloudy.gif",
		"title":"Saturday",
		"fcttext":"Partly cloudy skies. High near 75F. Winds S at 10 to 20 mph.",
		"fcttext_metric":"Partly cloudy. High 24C. Winds S at 15 to 30 km/h.",
		"pop":"10"
		}
		,
		{
		"period":5,
		"icon":"nt_partlycloudy",
		"icon_url":"http://icons.wxug.com/i/c/k/nt_partlycloudy.gif",
		"title":"Saturday Night",
		"fcttext":"Partly cloudy. Low 62F. Winds S at 10 to 15 mph.",
		"fcttext_metric":"A few clouds from time to time. Low 17C. Winds S at 15 to 25 km/h.",
		"pop":"10"
		}
		,
		{
		"period":6,
		"icon":"chancetstorms",
		"icon_url":"http://icons.wxug.com/i/c/k/chancetstorms.gif",
		"title":"Sunday",
		"fcttext":"Scattered showers and thunderstorms, especially early in the day. High 77F. Winds SSW at 15 to 25 mph. Chance of rain 40%.",
		"fcttext_metric":"Partly cloudy with isolated thunderstorms possible. High around 25C. Winds SSW at 15 to 30 km/h. Chance of rain 30%.",
		"pop":"40"
		}
		,
		{
		"period":7,
		"icon":"nt_partlycloudy",
		"icon_url":"http://icons.wxug.com/i/c/k/nt_partlycloudy.gif",
		"title":"Sunday Night",
		"fcttext":"Partly cloudy skies. Low 63F. Winds SSW at 10 to 15 mph.",
		"fcttext_metric":"A few clouds from time to time. Low 17C. Winds SSW at 15 to 25 km/h.",
		"pop":"20"
		}
		]
		},
		"simpleforecast": {
		"forecastday": [
		{"date":{
	"epoch":"1476399600",
	"pretty":"7:00 PM EDT on October 13, 2016",
	"day":13,
	"month":10,
	"year":2016,
	"yday":286,
	"hour":19,
	"min":"00",
	"sec":0,
	"isdst":"1",
	"monthname":"October",
	"monthname_short":"Oct",
	"weekday_short":"Thu",
	"weekday":"Thursday",
	"ampm":"PM",
	"tz_short":"EDT",
	"tz_long":"America/Indianapolis"
},
		"period":1,
		"high": {
		"fahrenheit":"61",
		"celsius":"16"
		},
		"low": {
		"fahrenheit":"38",
		"celsius":"3"
		},
		"conditions":"Partly Cloudy",
		"icon":"partlycloudy",
		"icon_url":"http://icons.wxug.com/i/c/k/partlycloudy.gif",
		"skyicon":"",
		"pop":0,
		"qpf_allday": {
		"in": 0.00,
		"mm": 0
		},
		"qpf_day": {
		"in": 0.00,
		"mm": 0
		},
		"qpf_night": {
		"in": 0.00,
		"mm": 0
		},
		"snow_allday": {
		"in": 0.0,
		"cm": 0.0
		},
		"snow_day": {
		"in": 0.0,
		"cm": 0.0
		},
		"snow_night": {
		"in": 0.0,
		"cm": 0.0
		},
		"maxwind": {
		"mph": 5,
		"kph": 8,
		"dir": "N",
		"degrees": 358
		},
		"avewind": {
		"mph": 4,
		"kph": 6,
		"dir": "N",
		"degrees": 358
		},
		"avehumidity": 53,
		"maxhumidity": 0,
		"minhumidity": 0
		}
		,
		{"date":{
	"epoch":"1476486000",
	"pretty":"7:00 PM EDT on October 14, 2016",
	"day":14,
	"month":10,
	"year":2016,
	"yday":287,
	"hour":19,
	"min":"00",
	"sec":0,
	"isdst":"1",
	"monthname":"October",
	"monthname_short":"Oct",
	"weekday_short":"Fri",
	"weekday":"Friday",
	"ampm":"PM",
	"tz_short":"EDT",
	"tz_long":"America/Indianapolis"
},
		"period":2,
		"high": {
		"fahrenheit":"68",
		"celsius":"20"
		},
		"low": {
		"fahrenheit":"47",
		"celsius":"8"
		},
		"conditions":"Clear",
		"icon":"clear",
		"icon_url":"http://icons.wxug.com/i/c/k/clear.gif",
		"skyicon":"",
		"pop":10,
		"qpf_allday": {
		"in": 0.00,
		"mm": 0
		},
		"qpf_day": {
		"in": 0.00,
		"mm": 0
		},
		"qpf_night": {
		"in": 0.00,
		"mm": 0
		},
		"snow_allday": {
		"in": 0.0,
		"cm": 0.0
		},
		"snow_day": {
		"in": 0.0,
		"cm": 0.0
		},
		"snow_night": {
		"in": 0.0,
		"cm": 0.0
		},
		"maxwind": {
		"mph": 10,
		"kph": 16,
		"dir": "ESE",
		"degrees": 120
		},
		"avewind": {
		"mph": 7,
		"kph": 11,
		"dir": "ESE",
		"degrees": 120
		},
		"avehumidity": 60,
		"maxhumidity": 0,
		"minhumidity": 0
		}
		,
		{"date":{
	"epoch":"1476572400",
	"pretty":"7:00 PM EDT on October 15, 2016",
	"day":15,
	"month":10,
	"year":2016,
	"yday":288,
	"hour":19,
	"min":"00",
	"sec":0,
	"isdst":"1",
	"monthname":"October",
	"monthname_short":"Oct",
	"weekday_short":"Sat",
	"weekday":"Saturday",
	"ampm":"PM",
	"tz_short":"EDT",
	"tz_long":"America/Indianapolis"
},
		"period":3,
		"high": {
		"fahrenheit":"75",
		"celsius":"24"
		},
		"low": {
		"fahrenheit":"62",
		"celsius":"17"
		},
		"conditions":"Partly Cloudy",
		"icon":"partlycloudy",
		"icon_url":"http://icons.wxug.com/i/c/k/partlycloudy.gif",
		"skyicon":"",
		"pop":10,
		"qpf_allday": {
		"in": 0.00,
		"mm": 0
		},
		"qpf_day": {
		"in": 0.00,
		"mm": 0
		},
		"qpf_night": {
		"in": 0.00,
		"mm": 0
		},
		"snow_allday": {
		"in": 0.0,
		"cm": 0.0
		},
		"snow_day": {
		"in": 0.0,
		"cm": 0.0
		},
		"snow_night": {
		"in": 0.0,
		"cm": 0.0
		},
		"maxwind": {
		"mph": 20,
		"kph": 32,
		"dir": "S",
		"degrees": 185
		},
		"avewind": {
		"mph": 13,
		"kph": 21,
		"dir": "S",
		"degrees": 185
		},
		"avehumidity": 75,
		"maxhumidity": 0,
		"minhumidity": 0
		}
		,
		{"date":{
	"epoch":"1476658800",
	"pretty":"7:00 PM EDT on October 16, 2016",
	"day":16,
	"month":10,
	"year":2016,
	"yday":289,
	"hour":19,
	"min":"00",
	"sec":0,
	"isdst":"1",
	"monthname":"October",
	"monthname_short":"Oct",
	"weekday_short":"Sun",
	"weekday":"Sunday",
	"ampm":"PM",
	"tz_short":"EDT",
	"tz_long":"America/Indianapolis"
},
		"period":4,
		"high": {
		"fahrenheit":"77",
		"celsius":"25"
		},
		"low": {
		"fahrenheit":"63",
		"celsius":"17"
		},
		"conditions":"Chance of a Thunderstorm",
		"icon":"chancetstorms",
		"icon_url":"http://icons.wxug.com/i/c/k/chancetstorms.gif",
		"skyicon":"",
		"pop":40,
		"qpf_allday": {
		"in": 0.07,
		"mm": 2
		},
		"qpf_day": {
		"in": 0.07,
		"mm": 2
		},
		"qpf_night": {
		"in": 0.00,
		"mm": 0
		},
		"snow_allday": {
		"in": 0.0,
		"cm": 0.0
		},
		"snow_day": {
		"in": 0.0,
		"cm": 0.0
		},
		"snow_night": {
		"in": 0.0,
		"cm": 0.0
		},
		"maxwind": {
		"mph": 25,
		"kph": 40,
		"dir": "SSW",
		"degrees": 206
		},
		"avewind": {
		"mph": 17,
		"kph": 27,
		"dir": "SSW",
		"degrees": 206
		},
		"avehumidity": 71,
		"maxhumidity": 0,
		"minhumidity": 0
		}
		]
		}
	}
}
